{
"type": "FeatureCollection",
"crs": { "type": "name", "properties": { "name": "urn:ogc:def:crs:OGC:1.3:CRS84" } },
"features": [
{ "type": "Feature", "properties": { "番号": 1, "空港名": "新千歳空港", "住所": "北海道千歳市美々", "国際線旅客者数": 1567891, "国際線旅客者数（万人）": 156, "住所2": "New Chitose Airport (CTS), Bibi, Chitose, Hokkaido 066-0012, Japan", "lat": 42.7791317, "lon": 141.6866364 }, "geometry": { "type": "Point", "coordinates": [ 141.6866364, 42.7791317 ] } },
{ "type": "Feature", "properties": { "番号": 2, "空港名": "旭川空港", "住所": "北海道上川郡東神楽町東２線１６−９８", "国際線旅客者数": 19768, "国際線旅客者数（万人）": 1, "住所2": "Asahikawa Arpt, 2 Sen-16-98 Higashi, Higashikagura, Kamikawa District, Hokkaido 071-1562, Japan", "lat": 43.6715448, "lon": 142.4468435 }, "geometry": { "type": "Point", "coordinates": [ 142.4468435, 43.6715448 ] } },
{ "type": "Feature", "properties": { "番号": 3, "空港名": "稚内空港", "住所": "北海道稚内市声問村声問６７４４", "国際線旅客者数": 0, "国際線旅客者数（万人）": 0, "住所2": "Wakkanai Airport, Koetoi-6744 Koetoimura, Wakkanai, Hokkaido 098-6643, Japan", "lat": 45.3996593, "lon": 141.7973887 }, "geometry": { "type": "Point", "coordinates": [ 141.7973887, 45.3996593 ] } },
{ "type": "Feature", "properties": { "番号": 4, "空港名": "釧路空港", "住所": "北海道釧路市鶴丘 2番地", "国際線旅客者数": 0, "国際線旅客者数（万人）": 0, "住所2": "Kushiro Airport, 2 Tsuruoka, Kushiro, Hokkaido 084-0926, Japan", "lat": 43.0450955, "lon": 144.1962856 }, "geometry": { "type": "Point", "coordinates": [ 144.19628560000001, 43.0450955 ] } },
{ "type": "Feature", "properties": { "番号": 5, "空港名": "帯広空港", "住所": "北海道帯広市泉町西９線中8-41", "国際線旅客者数": 0, "国際線旅客者数（万人）": 0, "住所2": "Tokachi-Obihiro Airport, Nishi 9 Sen-中８-４１ Izumichō, Obihiro, Hokkaido 089-1245, Japan", "lat": 42.7312617, "lon": 143.2177738 }, "geometry": { "type": "Point", "coordinates": [ 143.2177738, 42.7312617 ] } },
{ "type": "Feature", "properties": { "番号": 6, "空港名": "函館空港", "住所": "北海道函館市高松町５１１", "国際線旅客者数": 40948, "国際線旅客者数（万人）": 4, "住所2": "Hakodate Airport, 511 Takamatsuchō, Hakodate, Hokkaido 042-0952, Japan", "lat": 41.7757043, "lon": 140.8158222 }, "geometry": { "type": "Point", "coordinates": [ 140.815822200000014, 41.7757043 ] } },
{ "type": "Feature", "properties": { "番号": 7, "空港名": "利尻空港", "住所": "北海道利尻郡利尻富士町鴛泊本泊１１４３番地", "国際線旅客者数": 0, "国際線旅客者数（万人）": 0, "住所2": "Rishiri Airport, Motodomari-１１４３番地 Oshidomari, Rishirifuji, Rishiri District, Hokkaido 097-0101, Japan", "lat": 45.2439929, "lon": 141.1841251 }, "geometry": { "type": "Point", "coordinates": [ 141.184125099999989, 45.2439929 ] } },
{ "type": "Feature", "properties": { "番号": 8, "空港名": "奥尻空港", "住所": "北海道奥尻郡奥尻町米岡１８５−２", "国際線旅客者数": 0, "国際線旅客者数（万人）": 0, "住所2": "Okushiri Airport (OIR), Yoneoka-185-2, Okushiri, Okushiri District, Hokkaido 043-1524, Japan", "lat": 42.0726055, "lon": 139.4355968 }, "geometry": { "type": "Point", "coordinates": [ 139.435596800000013, 42.0726055 ] } },
{ "type": "Feature", "properties": { "番号": 9, "空港名": "中標津空港", "住所": "北海道標津郡中標津町北中１６−９", "国際線旅客者数": 0, "国際線旅客者数（万人）": 0, "住所2": "Nakashibetsu Airport, 16-9 Kitanaka, Nakashibetsu, Shibetsu District, Hokkaido 086-1145, Japan", "lat": 43.5728738, "lon": 144.9561562 }, "geometry": { "type": "Point", "coordinates": [ 144.9561562, 43.5728738 ] } },
{ "type": "Feature", "properties": { "番号": 10, "空港名": "紋別空港", "住所": "北海道紋別市小向19番地3", "国際線旅客者数": 0, "国際線旅客者数（万人）": 0, "住所2": "Monbetsu Airport, 19-3 Komukai, Mombetsu, Hokkaido 099-6132, Japan", "lat": 44.306398, "lon": 143.4068361 }, "geometry": { "type": "Point", "coordinates": [ 143.4068361, 44.306398 ] } },
{ "type": "Feature", "properties": { "番号": 11, "空港名": "女満別空港", "住所": "北海道網走郡大空町女満別中央２０１−３", "国際線旅客者数": 0, "国際線旅客者数（万人）": 0, "住所2": "Memanbetsu Airport, 201-3 Memanbetsuchūō, Ozora, Abashiri District, Hokkaido 099-2371, Japan", "lat": 43.8816455, "lon": 144.1585847 }, "geometry": { "type": "Point", "coordinates": [ 144.1585847, 43.8816455 ] } },
{ "type": "Feature", "properties": { "番号": 12, "空港名": "仙台空港", "住所": "宮城県名取市下増田南原", "国際線旅客者数": 215606, "国際線旅客者数（万人）": 21, "住所2": "Sendai Airport (SDJ), Minamihara-無番地 Shimomasuda, Natori, Miyagi 989-2401, Japan", "lat": 38.1399076, "lon": 140.9171138 }, "geometry": { "type": "Point", "coordinates": [ 140.91711380000001, 38.1399076 ] } },
{ "type": "Feature", "properties": { "番号": 13, "空港名": "秋田空港", "住所": "秋田県秋田市雄和椿川山籠４９", "国際線旅客者数": 0, "国際線旅客者数（万人）": 0, "住所2": "Akita Airport (AXT), Yamagomori-４９ Yūwatsubakigawa, Akita, 010-1211, Japan", "lat": 39.6144778, "lon": 140.2177165 }, "geometry": { "type": "Point", "coordinates": [ 140.2177165, 39.6144778 ] } },
{ "type": "Feature", "properties": { "番号": 14, "空港名": "山形空港", "住所": "山形県東根市羽入 柏原新林３００８", "国際線旅客者数": 4254, "国際線旅客者数（万人）": 0, "住所2": "Japan, 〒999-3776 Yamagata, Higashine, Hanyū, 柏原新林３００８ Yamagata Airport (GAJ)", "lat": 38.4122393, "lon": 140.3703441 }, "geometry": { "type": "Point", "coordinates": [ 140.370344100000011, 38.4122393 ] } },
{ "type": "Feature", "properties": { "番号": 15, "空港名": "青森空港", "住所": "青森県青森市大谷小谷１−５", "国際線旅客者数": 5468, "国際線旅客者数（万人）": 0, "住所2": "Aomori Airport, Kotani-1-5 Ōtani, Aomori, 030-0155, Japan", "lat": 40.7354587, "lon": 140.6904126 }, "geometry": { "type": "Point", "coordinates": [ 140.6904126, 40.7354587 ] } },
{ "type": "Feature", "properties": { "番号": 16, "空港名": "花巻空港", "住所": "岩手県花巻市東宮野目第２地割 53番地", "国際線旅客者数": 19029, "国際線旅客者数（万人）": 1, "住所2": "Iwate Hanamaki Airport, 53番地 Dai 2 Chiwari Higashimiyanome, Hanamaki, Iwate 025-0003, Japan", "lat": 39.4214468, "lon": 141.1385489 }, "geometry": { "type": "Point", "coordinates": [ 141.138548899999989, 39.4214468 ] } },
{ "type": "Feature", "properties": { "番号": 17, "空港名": "大館能代空港", "住所": "秋田県北秋田市脇神苔岱２１−１４４", "国際線旅客者数": 0, "国際線旅客者数（万人）": 0, "住所2": "Ōdate-Noshiro Airport, Karamushitai-21-144 Wakigami, Kitaakita, Akita 018-3454, Japan", "lat": 40.193892, "lon": 140.3721343 }, "geometry": { "type": "Point", "coordinates": [ 140.3721343, 40.193892 ] } },
{ "type": "Feature", "properties": { "番号": 18, "空港名": "庄内空港", "住所": "山形県酒田市市浜 中字村東30-3", "国際線旅客者数": 606, "国際線旅客者数（万人）": 0, "住所2": "Japan, 〒998-0112 Yamagata, Sakata, 市浜中字村東30-3 Shonai Airport", "lat": 38.815831, "lon": 139.7876746 }, "geometry": { "type": "Point", "coordinates": [ 139.7876746, 38.815831 ] } },
{ "type": "Feature", "properties": { "番号": 19, "空港名": "福島空港", "住所": "福島県石川郡玉川村北須釜鏃田２１", "国際線旅客者数": 4003, "国際線旅客者数（万人）": 0, "住所2": "Fukushima Airport, Habakida-21 Kitasugama, Tamakawa, Ishikawa District, Fukushima 963-6304, Japan", "lat": 37.2285021, "lon": 140.4283852 }, "geometry": { "type": "Point", "coordinates": [ 140.4283852, 37.2285021 ] } },
{ "type": "Feature", "properties": { "番号": 20, "空港名": "成田国際空港", "住所": "千葉県成田市古込１−１", "国際線旅客者数": 16312020, "国際線旅客者数（万人）": 1631, "住所2": "Narita International Airport (NRT), 1-1 Furugome, Narita, Chiba 282-0004, Japan", "lat": 35.770178, "lon": 140.3843215 }, "geometry": { "type": "Point", "coordinates": [ 140.3843215, 35.770178 ] } },
{ "type": "Feature", "properties": { "番号": 21, "空港名": "東京国際空港", "住所": "東京都大田区羽田空港", "国際線旅客者数": 12393746, "国際線旅客者数（万人）": 1239, "住所2": "Tokyo International Airport (Haneda Airport) (HND), Hanedakūkō, Ota City, Tokyo 144-0041, Japan", "lat": 35.5482964, "lon": 139.7779951 }, "geometry": { "type": "Point", "coordinates": [ 139.7779951, 35.5482964 ] } },
{ "type": "Feature", "properties": { "番号": 22, "空港名": "新潟空港", "住所": "新潟県新潟市東区松浜町３７１０", "国際線旅客者数": 23511, "国際線旅客者数（万人）": 2, "住所2": "Niigata Airport (KIJ), 3710 Matsuhamachō, Higashi Ward, Niigata, 950-0001, Japan", "lat": 37.9549441, "lon": 139.1111814 }, "geometry": { "type": "Point", "coordinates": [ 139.1111814, 37.9549441 ] } },
{ "type": "Feature", "properties": { "番号": 23, "空港名": "大島空港", "住所": "東京都大島町元町北の山270番地", "国際線旅客者数": 0, "国際線旅客者数（万人）": 0, "住所2": "Oshima Airport (Tokyo Oshima Camelia Airport), Kitanoyama-270 Motomachi, Oshima, Tokyo 100-0101, Japan", "lat": 34.7824269, "lon": 139.3634289 }, "geometry": { "type": "Point", "coordinates": [ 139.3634289, 34.7824269 ] } },
{ "type": "Feature", "properties": { "番号": 24, "空港名": "三宅島空港", "住所": "東京都三宅村坪田1378番地", "国際線旅客者数": 0, "国際線旅客者数（万人）": 0, "住所2": "Miyakejima Airport (MYE), 1378 Tsubota, 三宅村 三宅島 Tokyo 100-1211, Japan", "lat": 34.0728033, "lon": 139.5596753 }, "geometry": { "type": "Point", "coordinates": [ 139.5596753, 34.0728033 ] } },
{ "type": "Feature", "properties": { "番号": 25, "空港名": "八丈島空港", "住所": "東京都八丈島八丈町大賀郷２８３９−２", "国際線旅客者数": 0, "国際線旅客者数（万人）": 0, "住所2": "Hachijojima Airport, 2839-2 Ōkagō, Hachijo Town, 八丈島 Tokyo 100-1401, Japan", "lat": 33.1165275, "lon": 139.7828125 }, "geometry": { "type": "Point", "coordinates": [ 139.7828125, 33.1165275 ] } },
{ "type": "Feature", "properties": { "番号": 26, "空港名": "新島空港", "住所": "東京都新島村字, 川原０", "国際線旅客者数": 0, "国際線旅客者数（万人）": 0, "住所2": "Niijima Airport, ０ Kawara, 字, Niijima, Tokyo 100-0400, Japan", "lat": 34.3704271, "lon": 139.269378 }, "geometry": { "type": "Point", "coordinates": [ 139.269378, 34.3704271 ] } },
{ "type": "Feature", "properties": { "番号": 27, "空港名": "神津島空港", "住所": "東京都神津島村字金長", "国際線旅客者数": 0, "国際線旅客者数（万人）": 0, "住所2": "Kouzushima Airport, Yakiyama, 字 Kozushima Village, Tokyo 100-0601, Japan", "lat": 34.1902414, "lon": 139.1343624 }, "geometry": { "type": "Point", "coordinates": [ 139.134362399999986, 34.1902414 ] } },
{ "type": "Feature", "properties": { "番号": 28, "空港名": "佐渡空港", "住所": "新潟県佐渡市秋津１８１４−３", "国際線旅客者数": 0, "国際線旅客者数（万人）": 0, "住所2": "Sado Airport, 1814-3 Akitsu, Sado, Niigata 952-0021, Japan", "lat": 38.0623068, "lon": 138.4085317 }, "geometry": { "type": "Point", "coordinates": [ 138.4085317, 38.0623068 ] } },
{ "type": "Feature", "properties": { "番号": 29, "空港名": "松本空港", "住所": "長野県松本市空港東８９０９", "国際線旅客者数": 0, "国際線旅客者数（万人）": 0, "住所2": "Shinshu-Matsumoto Airport (MMJ), 8909 Kūkōhigashi, Matsumoto, Nagano 390-1132, Japan", "lat": 36.1646638, "lon": 137.9264151 }, "geometry": { "type": "Point", "coordinates": [ 137.926415100000014, 36.1646638 ] } },
{ "type": "Feature", "properties": { "番号": 30, "空港名": "静岡空港", "住所": "静岡県牧之原市坂口３３３６−４", "国際線旅客者数": 52498, "国際線旅客者数（万人）": 5, "住所2": "Mt. Fuji Shizuoka Airport, 3336-4 Sakaguchi, Makinohara, Shizuoka 421-0411, Japan", "lat": 34.7964745, "lon": 138.1853219 }, "geometry": { "type": "Point", "coordinates": [ 138.1853219, 34.7964745 ] } },
{ "type": "Feature", "properties": { "番号": 31, "空港名": "中部国際空港", "住所": "愛知県常滑市セントレア１丁目１", "国際線旅客者数": 1838800, "国際線旅客者数（万人）": 183, "住所2": "Chubu Centrair International Airport (NGO), 1-chōme-1 Centrair, Tokoname, Aichi 479-0881, Japan", "lat": 34.8573624, "lon": 136.8107557 }, "geometry": { "type": "Point", "coordinates": [ 136.810755699999987, 34.8573624 ] } },
{ "type": "Feature", "properties": { "番号": 32, "空港名": "富山空港", "住所": "富山県富山市秋ヶ島３０", "国際線旅客者数": 31129, "国際線旅客者数（万人）": 3, "住所2": "Toyama Airport, 30 Akigashima, Toyama, 939-8252, Japan", "lat": 36.6482604, "lon": 137.187794 }, "geometry": { "type": "Point", "coordinates": [ 137.187794, 36.6482604 ] } },
{ "type": "Feature", "properties": { "番号": 33, "空港名": "能登空港", "住所": "石川県輪島市三井町洲衛１０−１１−１", "国際線旅客者数": 890, "国際線旅客者数（万人）": 0, "住所2": "Noto Airport (Noto-Satoyama Airport) (NTQ), Sue-10-11-1 Miimachi, Wajima, Ishikawa 929-2372, Japan", "lat": 37.2950808, "lon": 136.9574862 }, "geometry": { "type": "Point", "coordinates": [ 136.9574862, 37.2950808 ] } },
{ "type": "Feature", "properties": { "番号": 34, "空港名": "福井空港", "住所": "福井県坂井市春江町江留中５０−１−２", "国際線旅客者数": 0, "国際線旅客者数（万人）": 0, "住所2": "Fukui Airport (FKJ), 50-1-2 Haruechō Edomenaka, Sakai, Fukui 919-0412, Japan", "lat": 36.1401139, "lon": 136.2219681 }, "geometry": { "type": "Point", "coordinates": [ 136.2219681, 36.1401139 ] } },
{ "type": "Feature", "properties": { "番号": 35, "空港名": "大阪国際空港", "住所": "大阪府豊中市螢池西町３丁目５５５", "国際線旅客者数": 0, "国際線旅客者数（万人）": 0, "住所2": "Osaka International Airport (ITM), 3-chōme-555 Hotarugaike Nishimachi, Toyonaka, Osaka 560-0036, Japan", "lat": 34.7861612, "lon": 135.4380483 }, "geometry": { "type": "Point", "coordinates": [ 135.4380483, 34.7861612 ] } },
{ "type": "Feature", "properties": { "番号": 36, "空港名": "関西国際空港", "住所": "大阪府泉佐野市泉州空港北１", "国際線旅客者数": 11682263, "国際線旅客者数（万人）": 1168, "住所2": "Kansai International Airport (KIX), 1番地 Senshūkūkōkita, Izumisano, Osaka 549-0001, Japan", "lat": 34.4319994, "lon": 135.2366019 }, "geometry": { "type": "Point", "coordinates": [ 135.236601900000011, 34.4319994 ] } },
{ "type": "Feature", "properties": { "番号": 37, "空港名": "南紀白浜空港", "住所": "和歌山県西牟婁郡白浜町才野１６２２−１２５", "国際線旅客者数": 0, "国際線旅客者数（万人）": 0, "住所2": "Nanki-Shirahama Airport (Kumano-Shirahama Resort Airport), 1622-125 Saino, Shirahama, Nishimuro District, Wakayama 649-2211, Japan", "lat": 33.662184, "lon": 135.3605593 }, "geometry": { "type": "Point", "coordinates": [ 135.3605593, 33.662184 ] } },
{ "type": "Feature", "properties": { "番号": 38, "空港名": "神戸空港", "住所": "兵庫県神戸市中央区神戸空港１", "国際線旅客者数": 11, "国際線旅客者数（万人）": 0, "住所2": "Kobe Airport (UKB), 1 Kōbekūkō, Chuo Ward, Kobe, Hyogo 650-0048, Japan", "lat": 34.6350979, "lon": 135.2267037 }, "geometry": { "type": "Point", "coordinates": [ 135.2267037, 34.6350979 ] } },
{ "type": "Feature", "properties": { "番号": 39, "空港名": "広島空港", "住所": "広島県三原市本郷町善入寺６４−３１", "国際線旅客者数": 70628, "国際線旅客者数（万人）": 7, "住所2": "Hiroshima Airport (HIJ), 64-31 Hongōchō Zennyūji, Mihara, Hiroshima 729-0416, Japan", "lat": 34.437296, "lon": 132.9206229 }, "geometry": { "type": "Point", "coordinates": [ 132.920622900000012, 34.437296 ] } },
{ "type": "Feature", "properties": { "番号": 40, "空港名": "山口宇部空港", "住所": "山口県宇部市沖宇部６２５", "国際線旅客者数": 0, "国際線旅客者数（万人）": 0, "住所2": "Yamaguchi Ube Airport (UBJ), 625 Okiube, Ube, Yamaguchi 755-0001, Japan", "lat": 33.9312977, "lon": 131.2785382 }, "geometry": { "type": "Point", "coordinates": [ 131.278538200000014, 33.9312977 ] } },
{ "type": "Feature", "properties": { "番号": 41, "空港名": "岡山空港", "住所": "岡山県岡山市北区日応寺１２７７", "国際線旅客者数": 78849, "国際線旅客者数（万人）": 7, "住所2": "Okayama Momotaro Airport (OKJ), 1277 Nichiōji, Kita Ward, Okayama, 701-1131, Japan", "lat": 34.7579784, "lon": 133.8558042 }, "geometry": { "type": "Point", "coordinates": [ 133.8558042, 34.7579784 ] } },
{ "type": "Feature", "properties": { "番号": 42, "空港名": "鳥取空港", "住所": "鳥取県鳥取市湖山町西４−１１０−５", "国際線旅客者数": 444, "国際線旅客者数（万人）": 0, "住所2": "Tottori Airport, 4-chōme-110-5 Koyamachōnishi, Tottori, 680-0947, Japan", "lat": 35.5265417, "lon": 134.168 }, "geometry": { "type": "Point", "coordinates": [ 134.168, 35.5265417 ] } },
{ "type": "Feature", "properties": { "番号": 43, "空港名": "隠岐空港", "住所": "島根県隠岐郡隠岐の島町岬町１８８９−１２", "国際線旅客者数": 0, "国際線旅客者数（万人）": 0, "住所2": "Oki Airport, 1889-12 Misakimachi, Okinoshima, Oki-gun, Shimane 685-0021, Japan", "lat": 36.1776403, "lon": 133.3297021 }, "geometry": { "type": "Point", "coordinates": [ 133.3297021, 36.1776403 ] } },
{ "type": "Feature", "properties": { "番号": 44, "空港名": "出雲空港", "住所": "島根県出雲市斐川町 沖洲 ２６３３−１", "国際線旅客者数": 620, "国際線旅客者数（万人）": 0, "住所2": "Izumo Airport, 2633-1 Hikawachō Okinosu, Izumo, Shimane 699-0502, Japan", "lat": 35.4136367, "lon": 132.8888469 }, "geometry": { "type": "Point", "coordinates": [ 132.8888469, 35.4136367 ] } },
{ "type": "Feature", "properties": { "番号": 45, "空港名": "石見空港", "住所": "島根県益田市内田町イ５９７", "国際線旅客者数": 0, "国際線旅客者数（万人）": 0, "住所2": "Hagi-Iwami Airport, イ５９７ Uchidachō, Masuda, Shimane 698-0051, Japan", "lat": 34.6781762, "lon": 131.7967452 }, "geometry": { "type": "Point", "coordinates": [ 131.7967452, 34.6781762 ] } },
{ "type": "Feature", "properties": { "番号": 46, "空港名": "高松空港", "住所": "香川県高松市香南町岡１３１２−７", "国際線旅客者数": 166693, "国際線旅客者数（万人）": 16, "住所2": "Takamatsu Airport, 1312-7 Kōnanchōoka, Takamatsu, Kagawa 761-1401, Japan", "lat": 34.2148952, "lon": 134.0147183 }, "geometry": { "type": "Point", "coordinates": [ 134.0147183, 34.2148952 ] } },
{ "type": "Feature", "properties": { "番号": 47, "空港名": "松山空港", "住所": "愛媛県松山市南吉田町２７３１", "国際線旅客者数": 70030, "国際線旅客者数（万人）": 7, "住所2": "Matsuyama Airport (MYJ), 2731 Minamiyoshidamachi, Matsuyama, Ehime 791-8042, Japan", "lat": 33.8276948, "lon": 132.7003773 }, "geometry": { "type": "Point", "coordinates": [ 132.700377300000014, 33.8276948 ] } },
{ "type": "Feature", "properties": { "番号": 48, "空港名": "高知空港", "住所": "高知県南国市久枝乙 ５８", "国際線旅客者数": 19363, "国際線旅客者数（万人）": 1, "住所2": "Kōchi Airport, 乙５８ Hisaeda, Nankoku, Kochi 783-0096, Japan", "lat": 33.5476089, "lon": 133.6740704 }, "geometry": { "type": "Point", "coordinates": [ 133.6740704, 33.5476089 ] } },
{ "type": "Feature", "properties": { "番号": 49, "空港名": "福岡空港", "住所": "福岡県福岡市博多区下臼井７７８−１", "国際線旅客者数": 4393838, "国際線旅客者数（万人）": 439, "住所2": "Fukuoka Airport (FUK), 778-1 Shimousui, Hakata Ward, Fukuoka, 812-0003, Japan", "lat": 33.5849988, "lon": 130.4490906 }, "geometry": { "type": "Point", "coordinates": [ 130.4490906, 33.5849988 ] } },
{ "type": "Feature", "properties": { "番号": 50, "空港名": "北九州空港", "住所": "福岡県北九州市小倉南区空港北町６", "国際線旅客者数": 62002, "国際線旅客者数（万人）": 6, "住所2": "Kitakyushu Airport, 6 Kūkō Kitamachi, Kokuraminami Ward, Kitakyushu, Fukuoka 800-0306, Japan", "lat": 33.8390089, "lon": 131.033516 }, "geometry": { "type": "Point", "coordinates": [ 131.033516, 33.8390089 ] } },
{ "type": "Feature", "properties": { "番号": 51, "空港名": "長崎空港", "住所": "長崎県大村市箕島町５９３", "国際線旅客者数": 408, "国際線旅客者数（万人）": 0, "住所2": "Nagasaki Airport (NGS), 593 Mishimamachi, Ōmura, Nagasaki 856-0816, Japan", "lat": 32.9149339, "lon": 129.917042 }, "geometry": { "type": "Point", "coordinates": [ 129.917042, 32.9149339 ] } },
{ "type": "Feature", "properties": { "番号": 52, "空港名": "熊本空港", "住所": "熊本県上益城郡益城町小谷１８０２−２", "国際線旅客者数": 103252, "国際線旅客者数（万人）": 10, "住所2": "Kumamoto Airport (KMJ), 1802-2 Oyatsu, Mashiki, Kamimashiki District, Kumamoto 861-2204, Japan", "lat": 32.8349978, "lon": 130.8589779 }, "geometry": { "type": "Point", "coordinates": [ 130.858977900000014, 32.8349978 ] } },
{ "type": "Feature", "properties": { "番号": 53, "空港名": "大分空港", "住所": "大分県国東市安岐町下原１３", "国際線旅客者数": 21517, "国際線旅客者数（万人）": 2, "住所2": "Oita Airport (OIT), 13 Akimachi Shimobaru, Kunisaki, Oita 873-0231, Japan", "lat": 33.4796632, "lon": 131.7362008 }, "geometry": { "type": "Point", "coordinates": [ 131.7362008, 33.4796632 ] } },
{ "type": "Feature", "properties": { "番号": 54, "空港名": "宮崎空港", "住所": "宮崎県宮崎市赤江", "国際線旅客者数": 10700, "国際線旅客者数（万人）": 1, "住所2": "Miyazaki Airport (KMI), Akae, Miyazaki, 880-0912, Japan", "lat": 31.8762059, "lon": 131.4483982 }, "geometry": { "type": "Point", "coordinates": [ 131.448398200000014, 31.8762059 ] } },
{ "type": "Feature", "properties": { "番号": 55, "空港名": "鹿児島空港", "住所": "鹿児島県霧島市溝辺町麓８２２", "国際線旅客者数": 33088, "国際線旅客者数（万人）": 3, "住所2": "Kagoshima International Airport (KOJ), 822 Mizobechōfumoto, Kirishima, Kagoshima 899-6404, Japan", "lat": 31.8007193, "lon": 130.7202592 }, "geometry": { "type": "Point", "coordinates": [ 130.720259199999987, 31.8007193 ] } },
{ "type": "Feature", "properties": { "番号": 56, "空港名": "佐賀空港", "住所": "佐賀県佐賀市川副町大字犬井道９４７６−１８７", "国際線旅客者数": 39796, "国際線旅客者数（万人）": 3, "住所2": "Saga International Airport, 旅客ターミナルビル 9476-187 Kawasoemachi Ōaza Inuidō, Saga, 840-2212, Japan", "lat": 33.1505692, "lon": 130.3018177 }, "geometry": { "type": "Point", "coordinates": [ 130.301817699999987, 33.1505692 ] } },
{ "type": "Feature", "properties": { "番号": 57, "空港名": "対馬空港", "住所": "長崎県対馬市美津島町鷄知乙２８３", "国際線旅客者数": 0, "国際線旅客者数（万人）": 0, "住所2": "TSUSHIMA YAMANEKO AIRPORT, 乙440 Mitsushimamachi Kechi, Tsushima, Nagasaki 817-0322, Japan", "lat": 34.2859032, "lon": 129.3260756 }, "geometry": { "type": "Point", "coordinates": [ 129.3260756, 34.2859032 ] } },
{ "type": "Feature", "properties": { "番号": 58, "空港名": "小値賀空港", "住所": "長崎県北松浦郡小値賀町前方郷", "国際線旅客者数": 0, "国際線旅客者数（万人）": 0, "住所2": "Ojika Airport, 2074-1 Maegatagō, Ojika, 北松浦郡 Nagasaki 857-4702, Japan", "lat": 33.1908333, "lon": 129.0902778 }, "geometry": { "type": "Point", "coordinates": [ 129.0902778, 33.1908333 ] } },
{ "type": "Feature", "properties": { "番号": 59, "空港名": "福江空港", "住所": "長崎県五島市上大津町２１８３", "国際線旅客者数": 0, "国際線旅客者数（万人）": 0, "住所2": "Fukue Airport (Gotō Tsubaki Airport), 2183 Kamiōzuchō, Goto, Nagasaki 853-0042, Japan", "lat": 32.6679278, "lon": 128.8343104 }, "geometry": { "type": "Point", "coordinates": [ 128.8343104, 32.6679278 ] } },
{ "type": "Feature", "properties": { "番号": 60, "空港名": "上五島空港", "住所": "長崎県南松浦郡新上五島町友住郷７４４", "国際線旅客者数": 0, "国際線旅客者数（万人）": 0, "住所2": "Kami-Gotō Airport, 744 Tomosumigō, Shinkamigoto, Minamimatsuura District, Nagasaki 857-4102, Japan", "lat": 33.0112077, "lon": 129.1915714 }, "geometry": { "type": "Point", "coordinates": [ 129.191571399999987, 33.0112077 ] } },
{ "type": "Feature", "properties": { "番号": 61, "空港名": "壱岐空港", "住所": "長崎県壱岐市石田町筒城東触１７２５", "国際線旅客者数": 0, "国際線旅客者数（万人）": 0, "住所2": "Iki Airport, 1725 Ishidachō Tsutsukihigashifure, Iki, Nagasaki 811-5203, Japan", "lat": 33.7502681, "lon": 129.7840471 }, "geometry": { "type": "Point", "coordinates": [ 129.7840471, 33.7502681 ] } },
{ "type": "Feature", "properties": { "番号": 62, "空港名": "屋久島空港", "住所": "鹿児島県熊毛郡屋久島町小瀬田５０１", "国際線旅客者数": 0, "国際線旅客者数（万人）": 0, "住所2": "Yakushima Airport, 501 Koseda, Yakushima, Kumage District, Kagoshima 891-4207, Japan", "lat": 30.3845262, "lon": 130.6603495 }, "geometry": { "type": "Point", "coordinates": [ 130.6603495, 30.3845262 ] } },
{ "type": "Feature", "properties": { "番号": 63, "空港名": "奄美空港", "住所": "鹿児島県奄美市笠利町", "国際線旅客者数": 0, "国際線旅客者数（万人）": 0, "住所2": "Amami Airport, 374-4 Kasarichō Ōaza Wano, Amami, Kagoshima 894-0503, Japan", "lat": 28.4304414, "lon": 129.7113205 }, "geometry": { "type": "Point", "coordinates": [ 129.7113205, 28.4304414 ] } },
{ "type": "Feature", "properties": { "番号": 64, "空港名": "喜界空港", "住所": "鹿児島県大島郡喜界町中里字西牧201−９", "国際線旅客者数": 0, "国際線旅客者数（万人）": 0, "住所2": "Kikai Airport, 201-9 字西牧 喜界町中里 Oshima District, Kagoshima 891-6203, Japan", "lat": 28.3197961, "lon": 129.9274656 }, "geometry": { "type": "Point", "coordinates": [ 129.9274656, 28.3197961 ] } },
{ "type": "Feature", "properties": { "番号": 65, "空港名": "徳之島空港", "住所": "鹿児島県大島郡天城町浅間１−１", "国際線旅客者数": 0, "国際線旅客者数（万人）": 0, "住所2": "Tokunoshima Airport, 1-1 Asama, Amagi, Oshima District, Kagoshima 891-7605, Japan", "lat": 27.8322781, "lon": 128.8832089 }, "geometry": { "type": "Point", "coordinates": [ 128.8832089, 27.8322781 ] } },
{ "type": "Feature", "properties": { "番号": 66, "空港名": "沖永良部空港", "住所": "鹿児島県大島郡和泊町国頭", "国際線旅客者数": 0, "国際線旅客者数（万人）": 0, "住所2": "Okinoerabu Airport, 1732-2 Kunigami, Wadomari, Oshima District, Kagoshima 891-9101, Japan", "lat": 27.4331345, "lon": 128.7047594 }, "geometry": { "type": "Point", "coordinates": [ 128.7047594, 27.4331345 ] } },
{ "type": "Feature", "properties": { "番号": 67, "空港名": "与論空港", "住所": "鹿児島県大島郡与論町立長", "国際線旅客者数": 0, "国際線旅客者数（万人）": 0, "住所2": "Yoron Airport, 57 Ritchō, Yoron, Oshima District, Kagoshima 891-9302, Japan", "lat": 27.0430615, "lon": 128.3999492 }, "geometry": { "type": "Point", "coordinates": [ 128.3999492, 27.0430615 ] } },
{ "type": "Feature", "properties": { "番号": 68, "空港名": "種子島空港", "住所": "鹿児島県熊毛郡中種子町増田２６９２−６４", "国際線旅客者数": 0, "国際線旅客者数（万人）": 0, "住所2": "Tanegashima Airport (TNE), 2692-64 Masuda, Nakatane, Kumage District, Kagoshima 891-3603, Japan", "lat": 30.6092436, "lon": 130.9915774 }, "geometry": { "type": "Point", "coordinates": [ 130.991577400000011, 30.6092436 ] } },
{ "type": "Feature", "properties": { "番号": 69, "空港名": "那覇空港", "住所": "沖縄県那覇市鏡水１５０", "国際線旅客者数": 1236470, "国際線旅客者数（万人）": 123, "住所2": "Naha International Airport, 150 Kagamizu, Naha, Okinawa 901-0142, Japan", "lat": 26.2001297, "lon": 127.6466452 }, "geometry": { "type": "Point", "coordinates": [ 127.6466452, 26.2001297 ] } },
{ "type": "Feature", "properties": { "番号": 70, "空港名": "粟国空港", "住所": "沖縄県島尻郡粟国村浜４５５０", "国際線旅客者数": 0, "国際線旅客者数（万人）": 0, "住所2": "Aguni Airport, 4550 Hama, Aguni, Shimajiri District, Okinawa 901-3701, Japan", "lat": 26.5928022, "lon": 127.2393831 }, "geometry": { "type": "Point", "coordinates": [ 127.2393831, 26.5928022 ] } },
{ "type": "Feature", "properties": { "番号": 71, "空港名": "慶良間空港", "住所": "沖縄県島尻郡座間味村慶留間", "国際線旅客者数": 0, "国際線旅客者数（万人）": 0, "住所2": "Kerama Airport, ９３４番地１３ Geruma, Zamami, Shimajiri District, Okinawa 901-3312, Japan", "lat": 26.1705447, "lon": 127.2928834 }, "geometry": { "type": "Point", "coordinates": [ 127.2928834, 26.1705447 ] } },
{ "type": "Feature", "properties": { "番号": 72, "空港名": "久米島空港", "住所": "沖縄県島尻郡久米島町字北原５６６−２", "国際線旅客者数": 0, "国際線旅客者数（万人）": 0, "住所2": "Kumejima Airport, 566-2 Kitahara, 字 Kumejima, Shimajiri District, Okinawa 901-3133, Japan", "lat": 26.3648255, "lon": 126.7175055 }, "geometry": { "type": "Point", "coordinates": [ 126.7175055, 26.3648255 ] } },
{ "type": "Feature", "properties": { "番号": 73, "空港名": "南大東空港", "住所": "沖縄県島尻郡南大東村旧東２５８", "国際線旅客者数": 0, "国際線旅客者数（万人）": 0, "住所2": "Minamidaito Airport (MMD), 258 Kyūtō, Minamidaito, Shimajiri District, Okinawa 901-3803, Japan", "lat": 25.8459976, "lon": 131.2654695 }, "geometry": { "type": "Point", "coordinates": [ 131.2654695, 25.8459976 ] } },
{ "type": "Feature", "properties": { "番号": 74, "空港名": "北大東空港", "住所": "沖縄県島尻郡北大東村南19−１６", "国際線旅客者数": 0, "国際線旅客者数（万人）": 0, "住所2": "Kitadaito Airport, 19-16 Minami, Kitadaitō, Shimajiri District, Okinawa 901-3901, Japan", "lat": 25.9444457, "lon": 131.3244085 }, "geometry": { "type": "Point", "coordinates": [ 131.3244085, 25.9444457 ] } },
{ "type": "Feature", "properties": { "番号": 75, "空港名": "伊江島空港", "住所": "沖縄県国頭郡伊江村字東江前３８", "国際線旅客者数": 0, "国際線旅客者数（万人）": 0, "住所2": "Iejima Airport (IEJ), 38 Higashiemae, 字 Ie, Kunigami District, Okinawa 905-0503, Japan", "lat": 26.7236199, "lon": 127.7855238 }, "geometry": { "type": "Point", "coordinates": [ 127.7855238, 26.7236199 ] } },
{ "type": "Feature", "properties": { "番号": 76, "空港名": "宮古空港", "住所": "沖縄県宮古島市平良下里１６５７−１２８", "国際線旅客者数": 0, "国際線旅客者数（万人）": 0, "住所2": "Miyako Airport (MMY), Shimozato-1657-128 Hirara, Miyakojima, Okinawa 906-0013, Japan", "lat": 24.7792938, "lon": 125.2976329 }, "geometry": { "type": "Point", "coordinates": [ 125.2976329, 24.7792938 ] } },
{ "type": "Feature", "properties": { "番号": 77, "空港名": "下地島空港", "住所": "沖縄県宮古島市伊良部佐和田１７２７", "国際線旅客者数": 0, "国際線旅客者数（万人）": 0, "住所2": "R4GW+RR Shimojishima Airport, Sawada Irabu, Miyakojima, Okinawa 906-0507, Japan", "lat": 24.8270941, "lon": 125.147088 }, "geometry": { "type": "Point", "coordinates": [ 125.147088, 24.8270941 ] } },
{ "type": "Feature", "properties": { "番号": 78, "空港名": "多良間空港", "住所": "沖縄県宮古郡多良間村仲筋２３５１−７", "国際線旅客者数": 0, "国際線旅客者数（万人）": 0, "住所2": "Tarama Airport, 2351-7 Nakasuji, Tarama, Miyako District, Okinawa 906-0602, Japan", "lat": 24.6540373, "lon": 124.6773855 }, "geometry": { "type": "Point", "coordinates": [ 124.6773855, 24.6540373 ] } },
{ "type": "Feature", "properties": { "番号": 79, "空港名": "波照間空港", "住所": "沖縄県八重山郡竹富町", "国際線旅客者数": 0, "国際線旅客者数（万人）": 0, "住所2": "Hateruma Airport, 4566-27 Hateruma, Taketomi, Yaeyama District, Okinawa 907-1751, Japan", "lat": 24.0602643, "lon": 123.8045555 }, "geometry": { "type": "Point", "coordinates": [ 123.8045555, 24.0602643 ] } },
{ "type": "Feature", "properties": { "番号": 80, "空港名": "与那国空港", "住所": "沖縄県八重山郡与那国町与那国４３５０", "国際線旅客者数": 0, "国際線旅客者数（万人）": 0, "住所2": "Yonaguni Airport, 4350 Yonaguni, Yaeyama District, Okinawa 907-1801, Japan", "lat": 24.4652232, "lon": 122.9798603 }, "geometry": { "type": "Point", "coordinates": [ 122.9798603, 24.4652232 ] } }
]
}
